[
  {
    "city": "Bucharest",
    "city_ascii": "Bucharest",
    "lat": 44.4,
    "lng": 26.0833,
    "country": "Romania",
    "iso2": "RO",
    "iso3": "ROU",
    "admin_name": "Bucureşti",
    "capital": "primary",
    "population": 1883425,
    "id": 1642414442
  },
  {
    "city": "Brisbane",
    "city_ascii": "Brisbane",
    "lat": -27.4678,
    "lng": 153.0281,
    "country": "Australia",
    "iso2": "AU",
    "iso3": "AUS",
    "admin_name": "Queensland",
    "capital": "admin",
    "population": 2360241,
    "id": 1036192929
  },
  {
    "city": "Chengdu",
    "city_ascii": "Chengdu",
    "lat": 30.66,
    "lng": 104.0633,
    "country": "China",
    "iso2": "CN",
    "iso3": "CHN",
    "admin_name": "Sichuan",
    "capital": "admin",
    "population": 11920000,
    "id": 1156421555
  },
  {
    "city": "New Delhi",
    "city_ascii": "New Delhi",
    "lat": 28.6139,
    "lng": 77.209,
    "country": "India",
    "iso2": "IN",
    "iso3": "IND",
    "admin_name": "Delhi",
    "capital": "primary",
    "population": 249998,
    "id": 1356215164
  },
  {
    "city": "Paris",
    "city_ascii": "Paris",
    "lat": 48.8566,
    "lng": 2.3522,
    "country": "France",
    "iso2": "FR",
    "iso3": "FRA",
    "admin_name": "Île-de-France",
    "capital": "primary",
    "population": 11027000,
    "id": 1250015082
  },
  {
    "city": "San Francisco",
    "city_ascii": "San Francisco",
    "lat": 37.7562,
    "lng": -122.443,
    "country": "United States",
    "iso2": "US",
    "iso3": "USA",
    "admin_name": "California",
    "capital": "",
    "population": 3592294,
    "id": 1840021543
  },
  {
    "city": "Denver",
    "city_ascii": "Denver",
    "lat": 39.7621,
    "lng": -104.8759,
    "country": "United States",
    "iso2": "US",
    "iso3": "USA",
    "admin_name": "Colorado",
    "capital": "admin",
    "population": 2876625,
    "id": 1840018789
  },
  {
    "city": "Ankara",
    "city_ascii": "Ankara",
    "lat": 39.93,
    "lng": 32.85,
    "country": "Turkey",
    "iso2": "TR",
    "iso3": "TUR",
    "admin_name": "Ankara",
    "capital": "primary",
    "population": 77168,
    "id": 1792572891
  },
  {
    "city": "Harare",
    "city_ascii": "Harare",
    "lat": -17.8292,
    "lng": 31.0522,
    "country": "Zimbabwe",
    "iso2": "ZW",
    "iso3": "ZWE",
    "admin_name": "Harare",
    "capital": "primary",
    "population": 2150000,
    "id": 1716196799
  },
  {
    "city": "Hanoi",
    "city_ascii": "Hanoi",
    "lat": 21.0245,
    "lng": 105.8412,
    "country": "Vietnam",
    "iso2": "VN",
    "iso3": "VNM",
    "admin_name": "Hà Nội",
    "capital": "primary",
    "population": 8246600,
    "id": 1704413791
  },
  {
    "city": "Washington",
    "city_ascii": "Washington",
    "lat": 38.9047,
    "lng": -77.0163,
    "country": "United States",
    "iso2": "US",
    "iso3": "USA",
    "admin_name": "District of Columbia",
    "capital": "primary",
    "population": 5379184,
    "id": 1840006060
  },
  {
    "city": "Bangkok",
    "city_ascii": "Bangkok",
    "lat": 13.75,
    "lng": 100.5167,
    "country": "Thailand",
    "iso2": "TH",
    "iso3": "THA",
    "admin_name": "Krung Thep Maha Nakhon",
    "capital": "primary",
    "population": 17573000,
    "id": 1764068610
  },
  {
    "city": "Tunis",
    "city_ascii": "Tunis",
    "lat": 36.8008,
    "lng": 10.18,
    "country": "Tunisia",
    "iso2": "TN",
    "iso3": "TUN",
    "admin_name": "Tunis",
    "capital": "primary",
    "population": 1056247,
    "id": 1788742103
  },
  {
    "city": "Seoul",
    "city_ascii": "Seoul",
    "lat": 37.56,
    "lng": 126.99,
    "country": "South Korea",
    "iso2": "KR",
    "iso3": "KOR",
    "admin_name": "Seoul",
    "capital": "primary",
    "population": 22394000,
    "id": 1410836482
  },
  {
    "city": "Belgrade",
    "city_ascii": "Belgrade",
    "lat": 44.8167,
    "lng": 20.4667,
    "country": "Serbia",
    "iso2": "RS",
    "iso3": "SRB",
    "admin_name": "Beograd",
    "capital": "primary",
    "population": 1378682,
    "id": 1688374696
  },
  {
    "city": "Moscow",
    "city_ascii": "Moscow",
    "lat": 55.7558,
    "lng": 37.6178,
    "country": "Russia",
    "iso2": "RU",
    "iso3": "RUS",
    "admin_name": "Moskva",
    "capital": "primary",
    "population": 17693000,
    "id": 1643318494
  },
  {
    "city": "Lima",
    "city_ascii": "Lima",
    "lat": -12.06,
    "lng": -77.0375,
    "country": "Peru",
    "iso2": "PE",
    "iso3": "PER",
    "admin_name": "Lima",
    "capital": "primary",
    "population": 8992000,
    "id": 1604728603
  },
  {
    "city": "Islamabad",
    "city_ascii": "Islamabad",
    "lat": 33.6989,
    "lng": 73.0369,
    "country": "Pakistan",
    "iso2": "PK",
    "iso3": "PAK",
    "admin_name": "Islāmābād",
    "capital": "primary",
    "population": 1014825,
    "id": 1586306717
  },
  {
    "city": "Abuja",
    "city_ascii": "Abuja",
    "lat": 9.0556,
    "lng": 7.4914,
    "country": "Nigeria",
    "iso2": "NG",
    "iso3": "NGA",
    "admin_name": "Federal Capital Territory",
    "capital": "primary",
    "population": 1235880,
    "id": 1566342270
  },
  {
    "city": "Managua",
    "city_ascii": "Managua",
    "lat": 12.15,
    "lng": -86.2667,
    "country": "Nicaragua",
    "iso2": "NI",
    "iso3": "NIC",
    "admin_name": "Managua",
    "capital": "primary",
    "population": 1028808,
    "id": 1558296252
  },
  {
    "city": "Amsterdam",
    "city_ascii": "Amsterdam",
    "lat": 52.3667,
    "lng": 4.8833,
    "country": "Netherlands",
    "iso2": "NL",
    "iso3": "NLD",
    "admin_name": "Noord-Holland",
    "capital": "primary",
    "population": 862965,
    "id": 1528355309
  },
  {
    "city": "Rabat",
    "city_ascii": "Rabat",
    "lat": 34.0253,
    "lng": -6.8361,
    "country": "Morocco",
    "iso2": "MA",
    "iso3": "MAR",
    "admin_name": "Rabat-Salé-Kénitra",
    "capital": "primary",
    "population": 572717,
    "id": 1504023252
  },
  {
    "city": "Ulaanbaatar",
    "city_ascii": "Ulaanbaatar",
    "lat": 47.9214,
    "lng": 106.9055,
    "country": "Mongolia",
    "iso2": "MN",
    "iso3": "MNG",
    "admin_name": "Ulaanbaatar",
    "capital": "primary",
    "population": 1396288,
    "id": 1496024767
  },
  {
    "city": "Mexico City",
    "city_ascii": "Mexico City",
    "lat": 19.4333,
    "lng": -99.1333,
    "country": "Mexico",
    "iso2": "MX",
    "iso3": "MEX",
    "admin_name": "Ciudad de México",
    "capital": "primary",
    "population": 21505000,
    "id": 1484247881
  },
  {
    "city": "Nairobi",
    "city_ascii": "Nairobi",
    "lat": -1.2864,
    "lng": 36.8172,
    "country": "Kenya",
    "iso2": "KE",
    "iso3": "KEN",
    "admin_name": "Nairobi City",
    "capital": "primary",
    "population": 5545000,
    "id": 1404000661
  },
  {
    "city": "Tokyo",
    "city_ascii": "Tokyo",
    "lat": 35.6839,
    "lng": 139.7744,
    "country": "Japan",
    "iso2": "JP",
    "iso3": "JPN",
    "admin_name": "Tōkyō",
    "capital": "primary",
    "population": 39105000,
    "id": 1392685764
  },
  {
    "city": "Baghdad",
    "city_ascii": "Baghdad",
    "lat": 33.35,
    "lng": 44.4167,
    "country": "Iraq",
    "iso2": "IQ",
    "iso3": "IRQ",
    "admin_name": "Baghdād",
    "capital": "primary",
    "population": 6107000,
    "id": 1368596238
  },
  {
    "city": "Tehran",
    "city_ascii": "Tehran",
    "lat": 35.7,
    "lng": 51.4167,
    "country": "Iran",
    "iso2": "IR",
    "iso3": "IRN",
    "admin_name": "Tehrān",
    "capital": "primary",
    "population": 13819000,
    "id": 1364305026
  },
  {
    "city": "Jakarta",
    "city_ascii": "Jakarta",
    "lat": -6.2146,
    "lng": 106.8451,
    "country": "Indonesia",
    "iso2": "ID",
    "iso3": "IDN",
    "admin_name": "Jakarta",
    "capital": "primary",
    "population": 35362000,
    "id": 1360771077
  },
  {
    "city": "Guatemala City",
    "city_ascii": "Guatemala City",
    "lat": 14.6099,
    "lng": -90.5252,
    "country": "Guatemala",
    "iso2": "GT",
    "iso3": "GTM",
    "admin_name": "Guatemala",
    "capital": "primary",
    "population": 2934841,
    "id": 1320197916
  },
  {
    "city": "Berlin",
    "city_ascii": "Berlin",
    "lat": 52.5167,
    "lng": 13.3833,
    "country": "Germany",
    "iso2": "DE",
    "iso3": "DEU",
    "admin_name": "Berlin",
    "capital": "primary",
    "population": 3664088,
    "id": 1276451290
  },
  {
    "city": "Addis Ababa",
    "city_ascii": "Addis Ababa",
    "lat": 9.0272,
    "lng": 38.7369,
    "country": "Ethiopia",
    "iso2": "ET",
    "iso3": "ETH",
    "admin_name": "Ādīs Ābeba",
    "capital": "primary",
    "population": 3041002,
    "id": 1231824991
  },
  {
    "city": "Cairo",
    "city_ascii": "Cairo",
    "lat": 30.0444,
    "lng": 31.2358,
    "country": "Egypt",
    "iso2": "EG",
    "iso3": "EGY",
    "admin_name": "Al Qāhirah",
    "capital": "primary",
    "population": 19787000,
    "id": 1818253931
  },
  {
    "city": "Quito",
    "city_ascii": "Quito",
    "lat": -0.22,
    "lng": -78.5125,
    "country": "Ecuador",
    "iso2": "EC",
    "iso3": "ECU",
    "admin_name": "Pichincha",
    "capital": "primary",
    "population": 2011388,
    "id": 1218441993
  },
  {
    "city": "Bogotá",
    "city_ascii": "Bogota",
    "lat": 4.6126,
    "lng": -74.0705,
    "country": "Colombia",
    "iso2": "CO",
    "iso3": "COL",
    "admin_name": "Bogotá",
    "capital": "primary",
    "population": 7743955,
    "id": 1170483426
  },
  {
    "city": "Beijing",
    "city_ascii": "Beijing",
    "lat": 39.904,
    "lng": 116.4075,
    "country": "China",
    "iso2": "CN",
    "iso3": "CHN",
    "admin_name": "Beijing",
    "capital": "primary",
    "population": 19437000,
    "id": 1156228865
  },
  {
    "city": "Accra",
    "city_ascii": "Accra",
    "lat": 5.6037,
    "lng": -0.187,
    "country": "Ghana",
    "iso2": "GH",
    "iso3": "GHA",
    "admin_name": "Greater Accra",
    "capital": "primary",
    "population": 2291352,
    "id": 1288299415
  },
  {
    "city": "Ottawa",
    "city_ascii": "Ottawa",
    "lat": 45.4247,
    "lng": -75.695,
    "country": "Canada",
    "iso2": "CA",
    "iso3": "CAN",
    "admin_name": "Ontario",
    "capital": "primary",
    "population": 989567,
    "id": 1124399363
  },
  {
    "city": "Brasília",
    "city_ascii": "Brasilia",
    "lat": -15.7939,
    "lng": -47.8828,
    "country": "Brazil",
    "iso2": "BR",
    "iso3": "BRA",
    "admin_name": "Distrito Federal",
    "capital": "primary",
    "population": 3015268,
    "id": 1076144436
  },
  {
    "city": "La Paz",
    "city_ascii": "La Paz",
    "lat": -16.4942,
    "lng": -68.1475,
    "country": "Bolivia",
    "iso2": "BO",
    "iso3": "BOL",
    "admin_name": "La Paz",
    "capital": "primary",
    "population": 2867504,
    "id": 1068000064
  },
  {
    "city": "Dhaka",
    "city_ascii": "Dhaka",
    "lat": 23.7289,
    "lng": 90.3944,
    "country": "Bangladesh",
    "iso2": "BD",
    "iso3": "BGD",
    "admin_name": "Dhaka",
    "capital": "primary",
    "population": 16839000,
    "id": 1050529279
  },
  {
    "city": "Yerevan",
    "city_ascii": "Yerevan",
    "lat": 40.1814,
    "lng": 44.5144,
    "country": "Armenia",
    "iso2": "AM",
    "iso3": "ARM",
    "admin_name": "Yerevan",
    "capital": "primary",
    "population": 1075800,
    "id": 1051074169
  },
  {
    "city": "Chicago",
    "city_ascii": "Chicago",
    "lat": 41.8373,
    "lng": -87.6862,
    "country": "United States",
    "iso2": "US",
    "iso3": "USA",
    "admin_name": "Illinois",
    "capital": "",
    "population": 8604203,
    "id": 1840000494
  },
  {
    "city": "Kyiv",
    "city_ascii": "Kyiv",
    "lat": 50.45,
    "lng": 30.5236,
    "country": "Ukraine",
    "iso2": "UA",
    "iso3": "UKR",
    "admin_name": "Kyyiv, Misto",
    "capital": "primary",
    "population": 2963199,
    "id": 1804382913
  },
  {
    "city": "Dubai",
    "city_ascii": "Dubai",
    "lat": 25.2697,
    "lng": 55.3094,
    "country": "United Arab Emirates",
    "iso2": "AE",
    "iso3": "ARE",
    "admin_name": "Dubayy",
    "capital": "admin",
    "population": 2502715,
    "id": 1784736618
  },
  {
    "city": "Mumbai",
    "city_ascii": "Mumbai",
    "lat": 19.0758,
    "lng": 72.8775,
    "country": "India",
    "iso2": "IN",
    "iso3": "IND",
    "admin_name": "Mahārāshtra",
    "capital": "admin",
    "population": 22186000,
    "id": 1356226629
  },
  {
    "city": "Madrid",
    "city_ascii": "Madrid",
    "lat": 40.4167,
    "lng": -3.7167,
    "country": "Spain",
    "iso2": "ES",
    "iso3": "ESP",
    "admin_name": "Madrid",
    "capital": "primary",
    "population": 6006000,
    "id": 1724616994
  }
]